{"type":"FeatureCollection","features":[{"type":"Feature","geometry":{"type":"LineString","coordinates":[[-3.1878,55.9444],[-3.1879026,55.9446819],[-3.1876207,55.9445793],[-3.1873388,55.9444767],[-3.187079,55.9446267],[-3.1868192,55.9447767],[-3.1865594,55.9449267],[-3.1864094,55.9446669],[-3.1861139,55.9446148],[-3.1858841,55.944422],[-3.1856022,55.9443194],[-3.1853203,55.944422],[-3.1852682,55.9441265],[-3.1851182,55.9438667],[-3.1854182,55.9438667],[-3.1857136,55.9438146],[-3.1859735,55.9439646],[-3.1858708,55.9436827],[-3.1857682,55.9434008],[-3.1857161,55.9431054],[-3.1856135,55.9428234],[-3.185909,55.9428755],[-3.186209,55.9428755],[-3.1865044,55.9429276],[-3.1867999,55.9428755],[-3.1870953,55.9428234],[-3.1873772,55.9427208],[-3.1876727,55.9427729],[-3.1877753,55.9430548],[-3.1879253,55.9433147],[-3.1880279,55.9435966],[-3.1881779,55.9438564],[-3.18823,55.9441518],[-3.1885254,55.9440997],[-3.1888073,55.9439971],[-3.1888073,55.9436971],[-3.1890892,55.9437997],[-3.1893711,55.9439023],[-3.189653,55.9440049],[-3.1895504,55.9442868],[-3.1894004,55.9445466],[-3.1892504,55.9448064],[-3.1891983,55.9451019],[-3.1889385,55.9452519],[-3.1886566,55.9453545],[-3.1883968,55.9455045],[-3.188137,55.9456545],[-3.1878551,55.9457571],[-3.1875732,55.9458597],[-3.1872777,55.9459118],[-3.1869823,55.9458597],[-3.1866823,55.9458597],[-3.1863869,55.9458076],[-3.1860914,55.9458597],[-3.185796,55.9458076],[-3.185496,55.9458076],[-3.1852141,55.9459102],[-3.1855095,55.9458581],[-3.1858095,55.9458581],[-3.1861095,55.9458581],[-3.186405,55.9459102],[-3.1867004,55.9458581],[-3.1869958,55.9459102],[-3.1872958,55.9459102],[-3.1875958,55.9459102],[-3.1878958,55.9459102],[-3.1881913,55.9458581],[-3.1884913,55.9458581],[-3.1887913,55.9458581],[-3.1890732,55.9459607],[-3.1893732,55.9459607],[-3.1896686,55.9460128],[-3.1899686,55.9460128],[-3.1902641,55.9460649],[-3.1905641,55.9460649],[-3.1908595,55.9460128],[-3.191155,55.9459607],[-3.1913478,55.9457309],[-3.1914978,55.9454711],[-3.1916004,55.9451892],[-3.1913406,55.9450392],[-3.1910406,55.9450392],[-3.1910927,55.9447438],[-3.1910927,55.9444438],[-3.1910927,55.9441438],[-3.1910406,55.9438483],[-3.1911432,55.9435664],[-3.1909932,55.9433066],[-3.1907634,55.9431138],[-3.1906608,55.9428319],[-3.1909562,55.9427798],[-3.1912517,55.9427277],[-3.1913543,55.9430096],[-3.1914569,55.9432915],[-3.1916069,55.9435513],[-3.191659,55.9438467],[-3.1917616,55.9441286],[-3.1918642,55.9444106],[-3.1920142,55.9446704],[-3.1921168,55.9449523],[-3.1918349,55.9448497],[-3.1915349,55.9448497],[-3.191253,55.9447471],[-3.190953,55.9447471],[-3.1906575,55.944695],[-3.1903756,55.9445924],[-3.1900802,55.9446444],[-3.1897802,55.9446444],[-3.1894983,55.9445418],[-3.1892028,55.9445939],[-3.1889074,55.9445418],[-3.1886074,55.9445418],[-3.1883119,55.9444897],[-3.1880119,55.9444897],[-3.1877165,55.9444377]]},"properties":{}},{"type":"Feature","geometry":{"type":"Point","coordinates":[-3.187885,55.944709]},"properties":{"marker-size":"medium","location":"hurt.green.filer","rgb-string":"#80ff00","marker-color":"#80ff00","marker-symbol":"lighthouse"}},{"type":"Feature","geometry":{"type":"Point","coordinates":[-3.187307,55.944494]},"properties":{"marker-size":"medium","location":"only.fairly.rift","rgb-string":"#ffc000","marker-color":"#ffc000","marker-symbol":"danger"}},{"type":"Feature","geometry":{"type":"Point","coordinates":[-3.186537,55.944925]},"properties":{"marker-size":"medium","location":"laws.merit.bleak","rgb-string":"#ff0000","marker-color":"#ff0000","marker-symbol":"danger"}},{"type":"Feature","geometry":{"type":"Point","coordinates":[-3.186392,55.944656]},"properties":{"marker-size":"medium","location":"rated.fired.crowds","rgb-string":"#ff0000","marker-color":"#ff0000","marker-symbol":"danger"}},{"type":"Feature","geometry":{"type":"Point","coordinates":[-3.18567,55.944359]},"properties":{"marker-size":"medium","location":"atoms.vanish.foods","rgb-string":"#000000","marker-color":"#000000","marker-symbol":"cross"}},{"type":"Feature","geometry":{"type":"Point","coordinates":[-3.185236,55.944575]},"properties":{"marker-size":"medium","location":"acid.chair.butter","rgb-string":"#ff8000","marker-color":"#ff8000","marker-symbol":"danger"}},{"type":"Feature","geometry":{"type":"Point","coordinates":[-3.18514,55.943685]},"properties":{"marker-size":"medium","location":"hello.love.keys","rgb-string":"#ff4000","marker-color":"#ff4000","marker-symbol":"danger"}},{"type":"Feature","geometry":{"type":"Point","coordinates":[-3.186007,55.943901]},"properties":{"marker-size":"medium","location":"teams.mild.played","rgb-string":"#ff8000","marker-color":"#ff8000","marker-symbol":"danger"}},{"type":"Feature","geometry":{"type":"Point","coordinates":[-3.185573,55.942877]},"properties":{"marker-size":"medium","location":"dent.shins.cycle","rgb-string":"#ffc000","marker-color":"#ffc000","marker-symbol":"danger"}},{"type":"Feature","geometry":{"type":"Point","coordinates":[-3.186248,55.942796]},"properties":{"marker-size":"medium","location":"under.retire.bump","rgb-string":"#ff8000","marker-color":"#ff8000","marker-symbol":"danger"}},{"type":"Feature","geometry":{"type":"Point","coordinates":[-3.187018,55.942877]},"properties":{"marker-size":"medium","location":"valve.elaborate.fortunate","rgb-string":"#ff8000","marker-color":"#ff8000","marker-symbol":"danger"}},{"type":"Feature","geometry":{"type":"Point","coordinates":[-3.187693,55.942769]},"properties":{"marker-size":"medium","location":"panic.squad.danger","rgb-string":"#ff4000","marker-color":"#ff4000","marker-symbol":"danger"}},{"type":"Feature","geometry":{"type":"Point","coordinates":[-3.187837,55.943227]},"properties":{"marker-size":"medium","location":"gums.clock.modes","rgb-string":"#40ff00","marker-color":"#40ff00","marker-symbol":"lighthouse"}},{"type":"Feature","geometry":{"type":"Point","coordinates":[-3.187837,55.943227]},"properties":{"marker-size":"medium","location":"gums.clock.modes","rgb-string":"#40ff00","marker-color":"#40ff00","marker-symbol":"lighthouse"}},{"type":"Feature","geometry":{"type":"Point","coordinates":[-3.188271,55.944063]},"properties":{"marker-size":"medium","location":"rush.crown.link","rgb-string":"#00ff00","marker-color":"#00ff00","marker-symbol":"lighthouse"}},{"type":"Feature","geometry":{"type":"Point","coordinates":[-3.188945,55.943928]},"properties":{"marker-size":"medium","location":"noted.friday.jams","rgb-string":"#00ff00","marker-color":"#00ff00","marker-symbol":"lighthouse"}},{"type":"Feature","geometry":{"type":"Point","coordinates":[-3.188849,55.943658]},"properties":{"marker-size":"medium","location":"labels.hotels.alert","rgb-string":"#40ff00","marker-color":"#40ff00","marker-symbol":"lighthouse"}},{"type":"Feature","geometry":{"type":"Point","coordinates":[-3.188945,55.943928]},"properties":{"marker-size":"medium","location":"noted.friday.jams","rgb-string":"#00ff00","marker-color":"#00ff00","marker-symbol":"lighthouse"}},{"type":"Feature","geometry":{"type":"Point","coordinates":[-3.189812,55.94409]},"properties":{"marker-size":"medium","location":"cliff.asleep.wedge","rgb-string":"#40ff00","marker-color":"#40ff00","marker-symbol":"lighthouse"}},{"type":"Feature","geometry":{"type":"Point","coordinates":[-3.189186,55.945087]},"properties":{"marker-size":"medium","location":"number.exist.rate","rgb-string":"#80ff00","marker-color":"#80ff00","marker-symbol":"lighthouse"}},{"type":"Feature","geometry":{"type":"Point","coordinates":[-3.188319,55.945518]},"properties":{"marker-size":"medium","location":"skills.less.herb","rgb-string":"#ff8000","marker-color":"#ff8000","marker-symbol":"danger"}},{"type":"Feature","geometry":{"type":"Point","coordinates":[-3.187404,55.945949]},"properties":{"marker-size":"medium","location":"slips.mass.baking","rgb-string":"#ff8000","marker-color":"#ff8000","marker-symbol":"danger"}},{"type":"Feature","geometry":{"type":"Point","coordinates":[-3.187404,55.945949]},"properties":{"marker-size":"medium","location":"slips.mass.baking","rgb-string":"#ff8000","marker-color":"#ff8000","marker-symbol":"danger"}},{"type":"Feature","geometry":{"type":"Point","coordinates":[-3.185621,55.945761]},"properties":{"marker-size":"medium","location":"shed.desire.muddy","rgb-string":"#ff4000","marker-color":"#ff4000","marker-symbol":"danger"}},{"type":"Feature","geometry":{"type":"Point","coordinates":[-3.185621,55.945761]},"properties":{"marker-size":"medium","location":"shed.desire.muddy","rgb-string":"#ff4000","marker-color":"#ff4000","marker-symbol":"danger"}},{"type":"Feature","geometry":{"type":"Point","coordinates":[-3.185043,55.945868]},"properties":{"marker-size":"medium","location":"rider.aura.bulb","rgb-string":"#ff0000","marker-color":"#ff0000","marker-symbol":"danger"}},{"type":"Feature","geometry":{"type":"Point","coordinates":[-3.185621,55.945761]},"properties":{"marker-size":"medium","location":"shed.desire.muddy","rgb-string":"#ff4000","marker-color":"#ff4000","marker-symbol":"danger"}},{"type":"Feature","geometry":{"type":"Point","coordinates":[-3.187404,55.945949]},"properties":{"marker-size":"medium","location":"slips.mass.baking","rgb-string":"#ff8000","marker-color":"#ff8000","marker-symbol":"danger"}},{"type":"Feature","geometry":{"type":"Point","coordinates":[-3.187404,55.945949]},"properties":{"marker-size":"medium","location":"slips.mass.baking","rgb-string":"#ff8000","marker-color":"#ff8000","marker-symbol":"danger"}},{"type":"Feature","geometry":{"type":"Point","coordinates":[-3.189957,55.94603]},"properties":{"marker-size":"medium","location":"love.behind.orchestra","rgb-string":"#000000","marker-color":"#000000","marker-symbol":"cross"}},{"type":"Feature","geometry":{"type":"Point","coordinates":[-3.191161,55.945976]},"properties":{"marker-size":"medium","location":"simple.rust.audio","rgb-string":"#000000","marker-color":"#000000","marker-symbol":"cross"}},{"type":"Feature","geometry":{"type":"Point","coordinates":[-3.191594,55.945195]},"properties":{"marker-size":"medium","location":"hills.feels.tunes","rgb-string":"#ff8000","marker-color":"#ff8000","marker-symbol":"danger"}},{"type":"Feature","geometry":{"type":"Point","coordinates":[-3.191016,55.944979]},"properties":{"marker-size":"medium","location":"shapes.sheep.nature","rgb-string":"#ffc000","marker-color":"#ffc000","marker-symbol":"danger"}},{"type":"Feature","geometry":{"type":"Point","coordinates":[-3.191113,55.94417]},"properties":{"marker-size":"medium","location":"hills.giant.crate","rgb-string":"#00ff00","marker-color":"#00ff00","marker-symbol":"lighthouse"}},{"type":"Feature","geometry":{"type":"Point","coordinates":[-3.191113,55.943631]},"properties":{"marker-size":"medium","location":"loaf.cheer.slave","rgb-string":"#00ff00","marker-color":"#00ff00","marker-symbol":"lighthouse"}},{"type":"Feature","geometry":{"type":"Point","coordinates":[-3.190727,55.943092]},"properties":{"marker-size":"medium","location":"relate.chill.vest","rgb-string":"#40ff00","marker-color":"#40ff00","marker-symbol":"lighthouse"}},{"type":"Feature","geometry":{"type":"Point","coordinates":[-3.190583,55.942823]},"properties":{"marker-size":"medium","location":"tonic.bliss.cove","rgb-string":"#40ff00","marker-color":"#40ff00","marker-symbol":"lighthouse"}},{"type":"Feature","geometry":{"type":"Point","coordinates":[-3.191161,55.942742]},"properties":{"marker-size":"medium","location":"along.spill.limp","rgb-string":"#00ff00","marker-color":"#00ff00","marker-symbol":"lighthouse"}},{"type":"Feature","geometry":{"type":"Point","coordinates":[-3.192221,55.945114]},"properties":{"marker-size":"medium","location":"useful.hike.trades","rgb-string":"#ff8000","marker-color":"#ff8000","marker-symbol":"danger"}}]}