{"type":"FeatureCollection","features":[{"type":"Feature","geometry":{"type":"LineString","coordinates":[[-3.1878,55.9444],[-3.1880819,55.9442974],[-3.1883774,55.9442453],[-3.1886372,55.9440953],[-3.188897,55.9439453],[-3.188897,55.9436453],[-3.1891924,55.9435932],[-3.1894879,55.9435411],[-3.189295,55.9433113],[-3.189295,55.9430113],[-3.1895548,55.9428613],[-3.1894048,55.9431211],[-3.1895977,55.9428913],[-3.1898575,55.9427413],[-3.1901394,55.9428439],[-3.1903992,55.9429939],[-3.1906811,55.9430965],[-3.1908739,55.9428667],[-3.1911558,55.9427641],[-3.190963,55.9429939],[-3.1907702,55.9432237],[-3.1907181,55.9435192],[-3.1905681,55.943779],[-3.1904655,55.9440609],[-3.1906155,55.9443207],[-3.1908753,55.9444707],[-3.1910681,55.9447005],[-3.191016,55.9449959],[-3.191016,55.9452959],[-3.1907562,55.9454459],[-3.1904608,55.945498],[-3.1901789,55.9456006],[-3.1898969,55.9457032],[-3.1896671,55.9458961],[-3.1893717,55.9459482],[-3.1893717,55.9456482],[-3.1892691,55.9453663],[-3.1891665,55.9450844],[-3.1888846,55.945187],[-3.1886248,55.945337],[-3.1883429,55.9454396],[-3.18815,55.9452098],[-3.1879572,55.9449799],[-3.1880598,55.9452618],[-3.1882896,55.9454547],[-3.1880298,55.9453047],[-3.1882226,55.9455345],[-3.1879272,55.9454824],[-3.1876272,55.9454824],[-3.1873317,55.9455345],[-3.1870498,55.9456371],[-3.186857,55.9454073],[-3.186707,55.9451475],[-3.1865142,55.9449177],[-3.1863642,55.9446579],[-3.1860823,55.9445553],[-3.1862751,55.9443254],[-3.1863272,55.94403],[-3.1866272,55.94403],[-3.1863453,55.9439274],[-3.1860498,55.9438753],[-3.18582,55.9436825],[-3.18567,55.9439423],[-3.18567,55.9442423],[-3.1854772,55.9440125],[-3.1852474,55.9438196],[-3.1850545,55.9435898],[-3.1849045,55.94333],[-3.1851864,55.9432274],[-3.1854463,55.9430774],[-3.1857417,55.9430253],[-3.1860236,55.9429227],[-3.1863055,55.9428201],[-3.1865353,55.9430129],[-3.1867951,55.9431629],[-3.1870549,55.9433129],[-3.1872478,55.9435427],[-3.1875432,55.9435948],[-3.1878251,55.9434922],[-3.1876323,55.943722],[-3.1874395,55.9439519],[-3.1872096,55.9441447],[-3.1873122,55.9444266],[-3.1870524,55.9445766],[-3.1868226,55.9447694],[-3.1865928,55.9445766],[-3.186363,55.9447694],[-3.1861702,55.9449992],[-3.1860202,55.9452591],[-3.1858702,55.9455189],[-3.1856403,55.9457117],[-3.1853403,55.9457117],[-3.1850805,55.9458617],[-3.1848877,55.9456319],[-3.1847851,55.94535],[-3.1845553,55.9451571],[-3.1844527,55.9448752],[-3.1847527,55.9448752],[-3.1850527,55.9448752],[-3.1853527,55.9448752],[-3.1856481,55.9448231],[-3.1859436,55.944771],[-3.1862255,55.9446684],[-3.1865209,55.9446163],[-3.1868209,55.9446163],[-3.1871028,55.9445137],[-3.1873983,55.9444616],[-3.1876802,55.944359]]},"properties":{}},{"type":"Feature","geometry":{"type":"Point","coordinates":[-3.187789,55.944386]},"properties":{"marker-size":"medium","location":"thank.salsa.brain","rgb-string":"#80ff00","marker-color":"#80ff00","marker-symbol":"lighthouse"}},{"type":"Feature","geometry":{"type":"Point","coordinates":[-3.188415,55.944305]},"properties":{"marker-size":"medium","location":"trades.rare.cable","rgb-string":"#40ff00","marker-color":"#40ff00","marker-symbol":"lighthouse"}},{"type":"Feature","geometry":{"type":"Point","coordinates":[-3.188945,55.943928]},"properties":{"marker-size":"medium","location":"noted.friday.jams","rgb-string":"#000000","marker-color":"#000000","marker-symbol":"cross"}},{"type":"Feature","geometry":{"type":"Point","coordinates":[-3.188849,55.943658]},"properties":{"marker-size":"medium","location":"labels.hotels.alert","rgb-string":"#40ff00","marker-color":"#40ff00","marker-symbol":"lighthouse"}},{"type":"Feature","geometry":{"type":"Point","coordinates":[-3.189523,55.943551]},"properties":{"marker-size":"medium","location":"cars.attend.hotels","rgb-string":"#40ff00","marker-color":"#40ff00","marker-symbol":"lighthouse"}},{"type":"Feature","geometry":{"type":"Point","coordinates":[-3.189234,55.943012]},"properties":{"marker-size":"medium","location":"region.passes.pencil","rgb-string":"#80ff00","marker-color":"#80ff00","marker-symbol":"lighthouse"}},{"type":"Feature","geometry":{"type":"Point","coordinates":[-3.189764,55.942661]},"properties":{"marker-size":"medium","location":"hooked.shine.third","rgb-string":"#000000","marker-color":"#000000","marker-symbol":"cross"}},{"type":"Feature","geometry":{"type":"Point","coordinates":[-3.190727,55.943092]},"properties":{"marker-size":"medium","location":"relate.chill.vest","rgb-string":"#40ff00","marker-color":"#40ff00","marker-symbol":"lighthouse"}},{"type":"Feature","geometry":{"type":"Point","coordinates":[-3.191161,55.942742]},"properties":{"marker-size":"medium","location":"along.spill.limp","rgb-string":"#00ff00","marker-color":"#00ff00","marker-symbol":"lighthouse"}},{"type":"Feature","geometry":{"type":"Point","coordinates":[-3.190438,55.943982]},"properties":{"marker-size":"medium","location":"pump.wheels.hulk","rgb-string":"#40ff00","marker-color":"#40ff00","marker-symbol":"lighthouse"}},{"type":"Feature","geometry":{"type":"Point","coordinates":[-3.191065,55.944709]},"properties":{"marker-size":"medium","location":"estate.gave.votes","rgb-string":"#40ff00","marker-color":"#40ff00","marker-symbol":"lighthouse"}},{"type":"Feature","geometry":{"type":"Point","coordinates":[-3.191016,55.945248]},"properties":{"marker-size":"medium","location":"maple.limit.hotels","rgb-string":"#ffc000","marker-color":"#ffc000","marker-symbol":"danger"}},{"type":"Feature","geometry":{"type":"Point","coordinates":[-3.189379,55.945949]},"properties":{"marker-size":"medium","location":"coherent.saints.stuck","rgb-string":"#ff4000","marker-color":"#ff4000","marker-symbol":"danger"}},{"type":"Feature","geometry":{"type":"Point","coordinates":[-3.189186,55.945087]},"properties":{"marker-size":"medium","location":"number.exist.rate","rgb-string":"#c0ff00","marker-color":"#c0ff00","marker-symbol":"lighthouse"}},{"type":"Feature","geometry":{"type":"Point","coordinates":[-3.188319,55.945518]},"properties":{"marker-size":"medium","location":"skills.less.herb","rgb-string":"#ff4000","marker-color":"#ff4000","marker-symbol":"danger"}},{"type":"Feature","geometry":{"type":"Point","coordinates":[-3.18803,55.944979]},"properties":{"marker-size":"medium","location":"agents.mile.crib","rgb-string":"#c0ff00","marker-color":"#c0ff00","marker-symbol":"lighthouse"}},{"type":"Feature","geometry":{"type":"Point","coordinates":[-3.186729,55.945168]},"properties":{"marker-size":"medium","location":"dragon.bottle.crisp","rgb-string":"#ff4000","marker-color":"#ff4000","marker-symbol":"danger"}},{"type":"Feature","geometry":{"type":"Point","coordinates":[-3.186392,55.944656]},"properties":{"marker-size":"medium","location":"rated.fired.crowds","rgb-string":"#ffc000","marker-color":"#ffc000","marker-symbol":"danger"}},{"type":"Feature","geometry":{"type":"Point","coordinates":[-3.186537,55.944063]},"properties":{"marker-size":"medium","location":"lime.learns.front","rgb-string":"#ffc000","marker-color":"#ffc000","marker-symbol":"danger"}},{"type":"Feature","geometry":{"type":"Point","coordinates":[-3.186007,55.943901]},"properties":{"marker-size":"medium","location":"teams.mild.played","rgb-string":"#ffc000","marker-color":"#ffc000","marker-symbol":"danger"}},{"type":"Feature","geometry":{"type":"Point","coordinates":[-3.185814,55.943551]},"properties":{"marker-size":"medium","location":"record.sofa.sock","rgb-string":"#000000","marker-color":"#000000","marker-symbol":"cross"}},{"type":"Feature","geometry":{"type":"Point","coordinates":[-3.185525,55.943982]},"properties":{"marker-size":"medium","location":"manliness.poem.cliff","rgb-string":"#ff8000","marker-color":"#ff8000","marker-symbol":"danger"}},{"type":"Feature","geometry":{"type":"Point","coordinates":[-3.18567,55.944359]},"properties":{"marker-size":"medium","location":"atoms.vanish.foods","rgb-string":"#ff0000","marker-color":"#ff0000","marker-symbol":"danger"}},{"type":"Feature","geometry":{"type":"Point","coordinates":[-3.18514,55.943685]},"properties":{"marker-size":"medium","location":"hello.love.keys","rgb-string":"#ff8000","marker-color":"#ff8000","marker-symbol":"danger"}},{"type":"Feature","geometry":{"type":"Point","coordinates":[-3.184803,55.943173]},"properties":{"marker-size":"medium","location":"brings.remedy.latter","rgb-string":"#ff0000","marker-color":"#ff0000","marker-symbol":"danger"}},{"type":"Feature","geometry":{"type":"Point","coordinates":[-3.186248,55.942796]},"properties":{"marker-size":"medium","location":"under.retire.bump","rgb-string":"#ff8000","marker-color":"#ff8000","marker-symbol":"danger"}},{"type":"Feature","geometry":{"type":"Point","coordinates":[-3.187211,55.943335]},"properties":{"marker-size":"medium","location":"scale.chair.kinds","rgb-string":"#ffc000","marker-color":"#ffc000","marker-symbol":"danger"}},{"type":"Feature","geometry":{"type":"Point","coordinates":[-3.187355,55.943604]},"properties":{"marker-size":"medium","location":"shut.stands.media","rgb-string":"#000000","marker-color":"#000000","marker-symbol":"cross"}},{"type":"Feature","geometry":{"type":"Point","coordinates":[-3.187982,55.943497]},"properties":{"marker-size":"medium","location":"scare.cubs.resort","rgb-string":"#00ff00","marker-color":"#00ff00","marker-symbol":"lighthouse"}},{"type":"Feature","geometry":{"type":"Point","coordinates":[-3.185621,55.945761]},"properties":{"marker-size":"medium","location":"shed.desire.muddy","rgb-string":"#ffc000","marker-color":"#ffc000","marker-symbol":"danger"}},{"type":"Feature","geometry":{"type":"Point","coordinates":[-3.185043,55.945868]},"properties":{"marker-size":"medium","location":"rider.aura.bulb","rgb-string":"#ff0000","marker-color":"#ff0000","marker-symbol":"danger"}},{"type":"Feature","geometry":{"type":"Point","coordinates":[-3.184465,55.944952]},"properties":{"marker-size":"medium","location":"sports.topic.clocks","rgb-string":"#ff4000","marker-color":"#ff4000","marker-symbol":"danger"}}]}